{
"type": "FeatureCollection",
"name": "gdp2020",
"crs": { "type": "name", "properties": { "name": "urn:ogc:def:crs:OGC:1.3:CRS84" } },
"features": [
{ "type": "Feature", "properties": { "NAME": "北京市", "NAME1": "北京", "地区": "北京市", "GDP": 36102.6, "primary": 107.6, "secondary": 5716.4, "Tertiary": 30278.6, "GNP": 164889 }, "geometry": { "type": "Point", "coordinates": [ 116.380943298339844, 39.923614501953125 ] } },
{ "type": "Feature", "properties": { "NAME": "天津市", "NAME1": "天津", "地区": "天津市", "GDP": 14083.7, "primary": 210.2, "secondary": 4804.1, "Tertiary": 9069.5, "GNP": 101614 }, "geometry": { "type": "Point", "coordinates": [ 117.203498840332031, 39.131118774414062 ] } },
{ "type": "Feature", "properties": { "NAME": "河北省", "NAME1": "石家庄", "地区": "河北省", "GDP": 36206.9, "primary": 3880.1, "secondary": 13597.2, "Tertiary": 18729.5, "GNP": 48564 }, "geometry": { "type": "Point", "coordinates": [ 114.489776611328125, 38.045127868652344 ] } },
{ "type": "Feature", "properties": { "NAME": "山西省", "NAME1": "太原", "地区": "山西省", "GDP": 17651.9, "primary": 946.7, "secondary": 7675.4, "Tertiary": 9029.8, "GNP": 50528 }, "geometry": { "type": "Point", "coordinates": [ 112.569351196289062, 37.871112823486328 ] } },
{ "type": "Feature", "properties": { "NAME": "内蒙古自治区", "NAME1": "呼和浩特", "地区": "内蒙古自治区", "GDP": 17359.8, "primary": 2025.1, "secondary": 6868.0, "Tertiary": 8466.7, "GNP": 72062 }, "geometry": { "type": "Point", "coordinates": [ 111.663299560546875, 40.820941925048828 ] } },
{ "type": "Feature", "properties": { "NAME": "辽宁省", "NAME1": "沈阳", "地区": "辽宁省", "GDP": 25115.0, "primary": 2284.6, "secondary": 9400.9, "Tertiary": 13429.4, "GNP": 58872 }, "geometry": { "type": "Point", "coordinates": [ 123.41168212890625, 41.796615600585938 ] } },
{ "type": "Feature", "properties": { "NAME": "吉林省", "NAME1": "长春", "地区": "吉林省", "GDP": 12311.3, "primary": 1553.0, "secondary": 4326.2, "Tertiary": 6432.1, "GNP": 50800 }, "geometry": { "type": "Point", "coordinates": [ 125.3154296875, 43.892562866210938 ] } },
{ "type": "Feature", "properties": { "NAME": "黑龙江省", "NAME1": "哈尔滨", "地区": "黑龙江省", "GDP": 13698.5, "primary": 3438.3, "secondary": 3483.5, "Tertiary": 6776.7, "GNP": 42635 }, "geometry": { "type": "Point", "coordinates": [ 126.643341064453125, 45.741493225097656 ] } },
{ "type": "Feature", "properties": { "NAME": "上海市", "NAME1": "上海", "地区": "上海市", "GDP": 38700.6, "primary": 103.6, "secondary": 10289.5, "Tertiary": 28307.5, "GNP": 155768 }, "geometry": { "type": "Point", "coordinates": [ 121.469268798828125, 31.238176345825195 ] } },
{ "type": "Feature", "properties": { "NAME": "江苏省", "NAME1": "南京", "地区": "江苏省", "GDP": 102719.0, "primary": 4536.7, "secondary": 44226.4, "Tertiary": 53955.8, "GNP": 121231 }, "geometry": { "type": "Point", "coordinates": [ 118.772781372070312, 32.047615051269531 ] } },
{ "type": "Feature", "properties": { "NAME": "浙江省", "NAME1": "杭州", "地区": "浙江省", "GDP": 64613.3, "primary": 2169.2, "secondary": 26413.0, "Tertiary": 36031.2, "GNP": 100620 }, "geometry": { "type": "Point", "coordinates": [ 120.159248352050781, 30.265995025634766 ] } },
{ "type": "Feature", "properties": { "NAME": "安徽省", "NAME1": "合肥", "地区": "安徽省", "GDP": 38680.6, "primary": 3184.7, "secondary": 15671.7, "Tertiary": 19824.3, "GNP": 63426 }, "geometry": { "type": "Point", "coordinates": [ 117.275703430175781, 31.863254547119141 ] } },
{ "type": "Feature", "properties": { "NAME": "福建省", "NAME1": "福州", "地区": "福建省", "GDP": 43903.9, "primary": 2732.3, "secondary": 20328.8, "Tertiary": 20842.8, "GNP": 105818 }, "geometry": { "type": "Point", "coordinates": [ 119.297813415527344, 26.078590393066406 ] } },
{ "type": "Feature", "properties": { "NAME": "江西省", "NAME1": "南昌", "地区": "江西省", "GDP": 25691.5, "primary": 2241.6, "secondary": 11084.8, "Tertiary": 12365.1, "GNP": 56871 }, "geometry": { "type": "Point", "coordinates": [ 115.899917602539062, 28.675991058349609 ] } },
{ "type": "Feature", "properties": { "NAME": "山东省", "NAME1": "济南", "地区": "山东省", "GDP": 73129.0, "primary": 5363.8, "secondary": 28612.2, "Tertiary": 39153.0, "GNP": 72151 }, "geometry": { "type": "Point", "coordinates": [ 117.005599975585938, 36.667072296142578 ] } },
{ "type": "Feature", "properties": { "NAME": "河南省", "NAME1": "郑州", "地区": "河南省", "GDP": 54997.1, "primary": 5353.7, "secondary": 22875.3, "Tertiary": 26768.0, "GNP": 55435 }, "geometry": { "type": "Point", "coordinates": [ 113.650047302246094, 34.757034301757812 ] } },
{ "type": "Feature", "properties": { "NAME": "湖北省", "NAME1": "武汉", "地区": "湖北省", "GDP": 43443.5, "primary": 4131.9, "secondary": 17023.9, "Tertiary": 22287.6, "GNP": 74440 }, "geometry": { "type": "Point", "coordinates": [ 114.291938781738281, 30.567514419555664 ] } },
{ "type": "Feature", "properties": { "NAME": "湖南省", "NAME1": "长沙", "地区": "湖南省", "GDP": 41781.5, "primary": 4240.4, "secondary": 15937.7, "Tertiary": 21603.4, "GNP": 62900 }, "geometry": { "type": "Point", "coordinates": [ 112.981269836425781, 28.200824737548828 ] } },
{ "type": "Feature", "properties": { "NAME": "广东省", "NAME1": "广州", "地区": "广东省", "GDP": 110760.9, "primary": 4770.0, "secondary": 43450.2, "Tertiary": 62540.8, "GNP": 88210 }, "geometry": { "type": "Point", "coordinates": [ 113.261428833007812, 23.118911743164062 ] } },
{ "type": "Feature", "properties": { "NAME": "广西壮族自治区", "NAME1": "南宁", "地区": "广西壮族自治区", "GDP": 22156.7, "primary": 3555.8, "secondary": 7108.5, "Tertiary": 11492.4, "GNP": 44309 }, "geometry": { "type": "Point", "coordinates": [ 108.311767578125, 22.806543350219727 ] } },
{ "type": "Feature", "properties": { "NAME": "海南省", "NAME1": "海口", "地区": "海南省", "GDP": 5532.4, "primary": 1136.0, "secondary": 1055.3, "Tertiary": 3341.2, "GNP": 55131 }, "geometry": { "type": "Point", "coordinates": [ 110.346511840820312, 20.031793594360352 ] } },
{ "type": "Feature", "properties": { "NAME": "四川省", "NAME1": "成都", "地区": "四川省", "GDP": 48598.8, "primary": 5556.6, "secondary": 17571.1, "Tertiary": 25471.1, "GNP": 58126 }, "geometry": { "type": "Point", "coordinates": [ 104.081756591796875, 30.661056518554688 ] } },
{ "type": "Feature", "properties": { "NAME": "重庆市", "NAME1": "重庆", "地区": "重庆市", "GDP": 25002.8, "primary": 1803.3, "secondary": 9992.2, "Tertiary": 13207.3, "GNP": 78170 }, "geometry": { "type": "Point", "coordinates": [ 106.510337829589844, 29.558176040649414 ] } },
{ "type": "Feature", "properties": { "NAME": "贵州省", "NAME1": "贵阳", "地区": "贵州省", "GDP": 17826.6, "primary": 2539.9, "secondary": 6211.6, "Tertiary": 9075.1, "GNP": 46267 }, "geometry": { "type": "Point", "coordinates": [ 106.711372375488281, 26.576873779296875 ] } },
{ "type": "Feature", "properties": { "NAME": "云南省", "NAME1": "昆明", "地区": "云南省", "GDP": 24521.9, "primary": 3598.9, "secondary": 8287.5, "Tertiary": 12635.5, "GNP": 51975 }, "geometry": { "type": "Point", "coordinates": [ 102.704566955566406, 25.043844223022461 ] } },
{ "type": "Feature", "properties": { "NAME": "西藏自治区", "NAME1": "拉萨", "地区": "西藏自治区", "GDP": 1902.7, "primary": 150.6, "secondary": 798.3, "Tertiary": 953.8, "GNP": 52345 }, "geometry": { "type": "Point", "coordinates": [ 91.132049560546875, 29.657588958740234 ] } },
{ "type": "Feature", "properties": { "NAME": "陕西省", "NAME1": "西安", "地区": "陕西省", "GDP": 26181.9, "primary": 2267.5, "secondary": 11362.6, "Tertiary": 12551.7, "GNP": 66292 }, "geometry": { "type": "Point", "coordinates": [ 108.949028015136719, 34.261684417724609 ] } },
{ "type": "Feature", "properties": { "NAME": "甘肃省", "NAME1": "兰州", "地区": "甘肃省", "GDP": 9016.7, "primary": 1198.1, "secondary": 2852.0, "Tertiary": 4966.5, "GNP": 35995 }, "geometry": { "type": "Point", "coordinates": [ 103.750053405761719, 36.068038940429688 ] } },
{ "type": "Feature", "properties": { "NAME": "青海省", "NAME1": "西宁", "地区": "青海省", "GDP": 3005.9, "primary": 334.3, "secondary": 1143.5, "Tertiary": 1528.1, "GNP": 50819 }, "geometry": { "type": "Point", "coordinates": [ 101.787452697753906, 36.609447479248047 ] } },
{ "type": "Feature", "properties": { "NAME": "宁夏回族自治区", "NAME1": "银川", "地区": "宁夏回族自治区", "GDP": 3920.5, "primary": 338.0, "secondary": 1609.0, "Tertiary": 1973.6, "GNP": 54528 }, "geometry": { "type": "Point", "coordinates": [ 106.271942138671875, 38.468009948730469 ] } },
{ "type": "Feature", "properties": { "NAME": "新疆维吾尔自治区", "NAME1": "乌鲁木齐", "地区": "新疆维吾尔自治区", "GDP": 13797.6, "primary": 1981.3, "secondary": 4744.5, "Tertiary": 7071.8, "GNP": 53593 }, "geometry": { "type": "Point", "coordinates": [ 87.606117248535156, 43.790939331054688 ] } }
]
}
